{"name": "AutoFix London Central", "services": ["Engine", "Brakes", "Electrical"], "email": "info@autofixlondoncentral.co.uk", "phone": "+44 20 7946 0101", "address": "12 Baker Street, London W1U 3BT", "latitude": 51.5201, "longitude": -0.1567, "rating": 4.7}
{"name": "Premier Transmission Specialists", "services": ["Transmission", "Engine", "Electrical"], "email": "contact@premiertransmission.co.uk", "phone": "+44 20 7946 0202", "address": "45 Edgware Road, London W2 2JE", "latitude": 51.5152, "longitude": -0.1663, "rating": 4.5}
{"name": "BrakeMaster Garage", "services": ["Brakes", "Tires", "Bodywork"], "email": "hello@brakemaster.co.uk", "phone": "+44 20 7946 0303", "address": "88 Marylebone High Street, London W1U 4QW", "latitude": 51.5225, "longitude": -0.1492, "rating": 4.8}
{"name": "EastEnd Auto Centre", "services": ["Engine", "Electrical", "AC/Heating"], "email": "service@eastendauto.co.uk", "phone": "+44 20 7946 0404", "address": "23 Mile End Road, London E1 4TP", "latitude": 51.5196, "longitude": -0.0453, "rating": 4.2}
{"name": "South London Tyre & Wheel", "services": ["Tires", "Brakes", "Bodywork"], "email": "tyres@southlondontyres.co.uk", "phone": "+44 20 7946 0505", "address": "67 Brixton Road, London SW9 8PQ", "latitude": 51.4656, "longitude": -0.1145, "rating": 4.6}
{"name": "Hackney Mechanics Hub", "services": ["Engine", "Transmission", "Brakes"], "email": "enquiries@hackneymech.co.uk", "phone": "+44 20 7946 0606", "address": "14 Mare Street, London E8 3RH", "latitude": 51.5453, "longitude": -0.0555, "rating": 4.3}
{"name": "West London AC & Heating Experts", "services": ["AC/Heating", "Electrical", "Engine"], "email": "info@westlondonac.co.uk", "phone": "+44 20 7946 0707", "address": "101 Uxbridge Road, London W12 8NL", "latitude": 51.5074, "longitude": -0.2278, "rating": 4.9}
{"name": "North London Bodywork Studio", "services": ["Bodywork", "Tires", "Brakes"], "email": "studio@nlbodywork.co.uk", "phone": "+44 20 7946 0808", "address": "55 Holloway Road, London N7 8JN", "latitude": 51.5536, "longitude": -0.1127, "rating": 4.4}
{"name": "Canary Wharf Auto Services", "services": ["Electrical", "Engine", "Transmission"], "email": "service@cwautomotive.co.uk", "phone": "+44 20 7946 0909", "address": "8 Cabot Square, London E14 4QQ", "latitude": 51.5050, "longitude": -0.0228, "rating": 4.6}
{"name": "Greenwich Full Service Garage", "services": ["Engine", "Brakes", "AC/Heating", "Tires"], "email": "book@greenwichgarage.co.uk", "phone": "+44 20 7946 1010", "address": "32 Greenwich High Road, London SE10 8NN", "latitude": 51.4772, "longitude": -0.0093, "rating": 4.7}
{"name": "Clapham Quick Fix Motors", "services": ["Brakes", "Electrical", "Bodywork"], "email": "fix@claphamquickfix.co.uk", "phone": "+44 20 7946 1111", "address": "76 Clapham High Street, London SW4 7UL", "latitude": 51.4618, "longitude": -0.1380, "rating": 4.1}
{"name": "Islington Engine & Transmission", "services": ["Engine", "Transmission", "Electrical"], "email": "hello@islingtonengine.co.uk", "phone": "+44 20 7946 1212", "address": "19 Upper Street, London N1 0PQ", "latitude": 51.5362, "longitude": -0.1033, "rating": 4.5}
{"name": "Paddington Road Recovery & Repair", "services": ["Engine", "Brakes", "Tires", "Electrical"], "email": "recovery@paddingtonrepair.co.uk", "phone": "+44 20 7946 1313", "address": "40 Praed Street, London W2 1NT", "latitude": 51.5163, "longitude": -0.1762, "rating": 4.8}
{"name": "Southwark Speedy Tires", "services": ["Tires", "Brakes", "Bodywork"], "email": "tires@southwarkspeedy.co.uk", "phone": "+44 20 7946 1414", "address": "85 Borough High Street, London SE1 1NX", "latitude": 51.5019, "longitude": -0.0934, "rating": 4.3}
{"name": "Camden Electrical & Diagnostics", "services": ["Electrical", "Engine", "AC/Heating"], "email": "diag@camdenelectrical.co.uk", "phone": "+44 20 7946 1515", "address": "28 Camden High Street, London NW1 7JE", "latitude": 51.5390, "longitude": -0.1426, "rating": 4.7}
{"name": "Fulham Bodywork & Paint", "services": ["Bodywork", "Tires", "Brakes"], "email": "paint@fulhambodywork.co.uk", "phone": "+44 20 7946 1616", "address": "52 Fulham Broadway, London SW6 1AA", "latitude": 51.4814, "longitude": -0.1942, "rating": 4.6}
{"name": "Stratford Transmission Centre", "services": ["Transmission", "Engine", "Brakes"], "email": "trans@stratfordtrans.co.uk", "phone": "+44 20 7946 1717", "address": "11 Romford Road, London E15 4LJ", "latitude": 51.5423, "longitude": -0.0049, "rating": 4.4}
{"name": "Tottenham All-Round Mechanics", "services": ["Engine", "Brakes", "Electrical", "Transmission"], "email": "info@tottenhamallround.co.uk", "phone": "+44 20 7946 1818", "address": "63 High Road, Tottenham, London N17 8AD", "latitude": 51.5883, "longitude": -0.0683, "rating": 4.2}
{"name": "Lewisham Climate & Engine Care", "services": ["AC/Heating", "Engine", "Electrical"], "email": "care@lewishamclimate.co.uk", "phone": "+44 20 7946 1919", "address": "37 Lewisham High Street, London SE13 6AA", "latitude": 51.4614, "longitude": -0.0118, "rating": 4.5}
{"name": "Hammersmith Brake & Safety Centre", "services": ["Brakes", "Tires", "Electrical"], "email": "safety@hammersmithbrakes.co.uk", "phone": "+44 20 7946 2020", "address": "94 King Street, London W6 0QW", "latitude": 51.4927, "longitude": -0.2236, "rating": 4.7}
{"name": "Bethnal Green Full Garage", "services": ["Engine", "Transmission", "Bodywork", "Tires"], "email": "garage@bethналgreen.co.uk", "phone": "+44 20 7946 2121", "address": "22 Bethnal Green Road, London E2 6AG", "latitude": 51.5236, "longitude": -0.0718, "rating": 4.3}
{"name": "Vauxhall AC & Bodywork Pros", "services": ["AC/Heating", "Bodywork", "Brakes"], "email": "pros@vauxhallauto.co.uk", "phone": "+44 20 7946 2222", "address": "16 Vauxhall Bridge Road, London SW1V 2SA", "latitude": 51.4862, "longitude": -0.1323, "rating": 4.8}
{"name": "Wembley Motor Works", "services": ["Engine", "Transmission", "Tires", "AC/Heating"], "email": "works@wembleymotors.co.uk", "phone": "+44 20 7946 2323", "address": "7 Wembley Hill Road, Wembley HA9 8DA", "latitude": 51.5560, "longitude": -0.2952, "rating": 4.5}
{"name": "Croydon Comprehensive Auto", "services": ["Engine", "Brakes", "Electrical", "Bodywork"], "email": "auto@croydoncomprehensive.co.uk", "phone": "+44 20 7946 2424", "address": "48 George Street, Croydon CR0 1PB", "latitude": 51.3762, "longitude": -0.0982, "rating": 4.4}
{"name": "Ealing Electrical Solutions", "services": ["Electrical", "Engine", "AC/Heating"], "email": "solutions@ealingelectrical.co.uk", "phone": "+44 20 7946 2525", "address": "30 Uxbridge Road, Ealing W5 2BS", "latitude": 51.5130, "longitude": -0.3089, "rating": 4.6}
{"name": "Wimbledon Tyre & Transmission", "services": ["Tires", "Transmission", "Brakes"], "email": "tyres@wimbledontrans.co.uk", "phone": "+44 20 7946 2626", "address": "61 The Broadway, Wimbledon SW19 1RH", "latitude": 51.4213, "longitude": -0.2042, "rating": 4.7}
{"name": "Barking All-Vehicle Services", "services": ["Engine", "Brakes", "Bodywork", "Electrical"], "email": "service@barkingavs.co.uk", "phone": "+44 20 7946 2727", "address": "20 Station Parade, Barking IG11 8EN", "latitude": 51.5397, "longitude": 0.0810, "rating": 4.2}
{"name": "Finchley Prestige Auto Care", "services": ["Engine", "Electrical", "AC/Heating", "Transmission"], "email": "prestige@finchleyauto.co.uk", "phone": "+44 20 7946 2828", "address": "73 High Road, Finchley N12 0DA", "latitude": 51.5993, "longitude": -0.1882, "rating": 4.9}
{"name": "Shepherd's Bush Rapid Repairs", "services": ["Brakes", "Tires", "Bodywork", "Engine"], "email": "rapid@shepherdsbushrepairs.co.uk", "phone": "+44 20 7946 2929", "address": "5 Shepherd's Bush Market, London W12 8DD", "latitude": 51.5046, "longitude": -0.2196, "rating": 4.5}
{"name": "Ilford Multi-Service Garage", "services": ["Engine", "Transmission", "Electrical", "Tires", "AC/Heating"], "email": "garage@ilfordmulti.co.uk", "phone": "+44 20 7946 3030", "address": "90 High Road, Ilford IG1 1EE", "latitude": 51.5590, "longitude": 0.0700, "rating": 4.3}
